City_ID,City,Lat,Lng,Max Temp,Humidity,Cloudiness,Wind Speed,Country,Date
0,waitangi,-43.9535,-176.5597,8.23,90,100,0.89,NZ,1689426388
1,blackmans bay,-43.0167,147.3167,9.85,75,94,7.32,AU,1689426388
2,georgetown,5.4112,100.3354,29.99,72,20,1.03,MY,1689426327
3,qaqortoq,60.7167,-46.0333,5.56,91,100,4.1,GL,1689426159
4,khambhaliya,22.2072,69.6683,30.3,64,57,8.63,IN,1689426390
5,edinburgh of the seven seas,-37.0676,-12.3116,16.44,87,100,17.3,SH,1689426142
6,kismayo,-0.3582,42.5454,26.92,69,21,7.97,SO,1689426391
7,altay,47.8667,88.1167,29.21,28,54,6.78,CN,1689426320
8,adamstown,-25.066,-130.1015,21.96,76,66,9.25,PN,1689426391
9,nova sintra,14.8667,-24.7167,22.45,80,94,3.23,CV,1689426392
10,mahdia,35.5047,11.0622,36.97,32,0,8.05,TN,1689426392
11,itoman,26.1247,127.6694,29.01,79,20,8.75,JP,1689426392
12,sindirgi,39.2413,28.1784,34.19,25,0,7.81,TR,1689426393
13,pisco,-13.7,-76.2167,20.03,77,100,0.51,PE,1689426148
14,gwadar,25.1216,62.3254,28.7,75,14,7.04,PK,1689426393
15,tralee,52.2704,-9.7026,15.14,88,100,4.63,IE,1689426394
16,praia da vitoria,38.7333,-27.0667,23.2,78,40,3.99,PT,1689426185
17,harsin,34.2721,47.5861,39.45,6,0,10.03,IR,1689426394
18,port-aux-francais,-49.35,70.2167,2.39,55,54,12.97,TF,1689426394
19,conde,-7.2597,-34.9075,27.7,74,75,4.63,BR,1689426314
20,flying fish cove,-10.4217,105.6791,24.82,83,100,4.12,CX,1689426395
21,richards bay,-28.783,32.0377,23.07,41,0,4.5,ZA,1689425923
22,gadzhiyevo,69.2551,33.3362,16.82,83,100,3.41,RU,1689426144
23,naha,26.2125,127.6811,28.95,79,20,8.75,JP,1689426396
24,caleta de carquin,-11.0925,-77.6267,20.2,82,48,2.58,PE,1689426396
25,iskateley,67.6803,53.1512,23.84,39,16,1.91,RU,1689426396
26,zhuanghe,39.7008,122.9911,21.35,80,2,2.74,CN,1689426396
27,svetlyy,54.675,20.1347,27.03,32,26,1.31,RU,1689426397
28,mawu,29.5923,107.3139,22.02,91,100,1.07,CN,1689426397
29,grytviken,-54.2811,-36.5092,-4.08,85,15,3.06,GS,1689426397
30,berezovyy,51.6667,135.7,19.95,54,100,1.98,RU,1689426397
31,ribeira grande,38.5167,-28.7,23.22,68,40,2.68,PT,1689426397
32,maragogi,-9.0122,-35.2225,26.89,75,23,3.73,BR,1689426398
33,hyesan,41.4017,128.1778,18.82,89,100,0.64,KP,1689426204
34,fort bragg,35.139,-79.006,26.01,96,100,2.06,US,1689426152
35,yellowknife,62.456,-114.3525,11.29,93,75,2.06,CA,1689426315
36,la passe,45.5549,-0.8967,22.8,70,96,7.23,FR,1689426398
37,jamestown,42.097,-79.2353,24.77,78,0,2.57,US,1689426145
38,mount isa,-20.7333,139.5,14.87,82,40,0.0,AU,1689426103
39,toliara,-23.35,43.6667,24.54,47,0,4.08,MG,1689426399
40,codrington,-38.2667,141.9667,5.98,83,5,3.51,AU,1689426139
41,hadibu,12.65,54.0333,27.95,61,0,9.16,YE,1689426137
42,tyukhtet,56.5389,89.3011,26.52,65,58,4.54,RU,1689426399
43,tianpeng,30.9866,103.9393,29.26,73,91,2.57,CN,1689426321
44,quartu sant'elena,39.2419,9.1839,35.02,56,0,6.69,IT,1689426400
45,longyearbyen,78.2186,15.6401,14.91,44,0,6.17,SJ,1689426216
46,port mathurin,-19.6833,63.4167,23.69,80,64,7.13,MU,1689426400
47,san rafael del sur,11.8485,-86.4384,25.89,80,82,4.76,NI,1689426400
48,whitehorse,60.7161,-135.0538,11.43,72,40,1.54,CA,1689426386
49,bethel,41.3712,-73.414,26.05,85,40,1.54,US,1689426150
50,keflavik,64.0049,-22.5624,9.24,76,75,10.29,IS,1689426401
51,stanley,54.868,-1.6985,15.71,92,75,2.57,GB,1689426402
52,geraldton,-28.7667,114.6,7.23,81,0,2.57,AU,1689426402
53,sarkand,45.41,79.9186,30.5,22,7,5.74,KZ,1689426403
54,malango,-2.9627,119.9001,18.96,98,54,0.77,ID,1689426160
55,heiligenhafen,54.3667,10.9833,29.86,48,96,5.79,DE,1689426403
56,west island,-12.1568,96.8225,24.99,73,40,6.69,CC,1689426152
57,tanjung pandan,-2.75,107.65,24.47,89,100,3.29,ID,1689426404
58,ilulissat,69.2167,-51.1,9.01,71,75,3.6,GL,1689426404
59,vung tau,10.346,107.0843,28.15,80,100,6.56,VN,1689426382
60,mar del plata,-38.0023,-57.5575,7.75,84,0,5.66,AR,1689426183
61,ushuaia,-54.8,-68.3,2.81,75,75,5.14,AR,1689425922
62,camarinas,43.1311,-9.1817,22.74,59,1,5.44,ES,1689426405
63,puerto ayora,-0.7393,-90.3518,25.31,93,12,4.02,EC,1689426405
64,podgornoye,51.735,39.1496,20.12,68,0,6.0,RU,1689426405
65,hamilton,39.1834,-84.5333,25.49,83,40,1.54,US,1689426406
66,isafjordur,66.0755,-23.124,7.02,87,100,8.23,IS,1689426406
67,lata,40.1629,-8.3327,22.82,44,87,5.42,PT,1689426165
68,kruisfontein,-34.0033,24.7314,20.49,53,0,5.91,ZA,1689426406
69,carnarvon,-24.8667,113.6333,17.3,33,0,7.11,AU,1689426406
70,kingston,17.997,-76.7936,31.25,68,20,3.09,JM,1689426350
71,colonia,50.9333,6.95,27.47,73,75,3.6,DE,1689426389
72,lihue,21.9789,-159.3672,23.77,81,40,3.09,US,1689426407
73,wailua homesteads,22.0669,-159.378,23.44,81,40,3.09,US,1689426407
74,kalifornsky,60.4183,-151.29,13.19,98,100,4.12,US,1689426407
75,solnechnyy,50.7214,136.6319,18.34,54,100,0.49,RU,1689426408
76,puerto natales,-51.7236,-72.4875,0.25,93,40,5.66,CL,1689426137
77,tongliao,43.6125,122.2653,18.05,90,90,5.83,CN,1689426354
78,cockburn town,21.4612,-71.1419,28.45,76,4,7.51,TC,1689426408
79,bredasdorp,-34.5322,20.0403,18.08,51,100,4.65,ZA,1689426408
80,manggar,-2.8833,108.2667,25.66,85,100,3.74,ID,1689426409
81,lhasa,29.65,91.1,16.41,66,38,1.5,CN,1689426409
82,albany,42.6001,-73.9662,23.78,91,48,0.45,US,1689426244
83,tsiombe,-25.3,45.4833,22.91,49,0,6.42,MG,1689426409
84,iqaluit,63.7506,-68.5145,8.72,93,29,0.89,CA,1689426409
85,constantia,44.1833,28.65,30.39,56,4,5.24,RO,1689426368
86,freetown,8.484,-13.2299,27.36,75,74,2.71,SL,1689426410
87,kavaratti,10.5669,72.642,28.03,82,100,7.09,IN,1689426410
88,anadyr,64.75,177.4833,8.28,93,40,2.0,RU,1689426410
89,shortandy,51.7006,70.9994,15.7,76,100,6.84,KZ,1689426411
90,dunedin,-45.8742,170.5036,12.67,61,100,0.89,NZ,1689426099
91,mount horeb,43.0086,-89.7385,20.39,97,2,0.45,US,1689426411
92,east ballina,-28.8667,153.5833,12.11,73,0,4.57,AU,1689426411
93,hawaiian paradise park,19.5933,-154.9731,21.13,97,0,3.9,US,1689426141
94,tiksi,71.6872,128.8694,5.3,70,24,2.33,RU,1689426412
95,sitka,57.0531,-135.33,12.94,94,100,0.0,US,1689426412
96,namibe,-15.1961,12.1522,25.4,41,0,6.59,AO,1689426412
97,murghob,38.1702,73.9667,20.07,14,57,3.47,TJ,1689426412
98,sao jose da coroa grande,-8.8978,-35.1478,26.98,74,15,3.8,BR,1689426413
99,margaret river,-33.95,115.0667,12.7,71,0,5.69,AU,1689426413
100,kozhevnikovo,56.2589,83.9714,18.43,85,89,6.41,RU,1689426413
101,askoy,60.4092,5.226,18.35,46,100,3.6,NO,1689426413
102,sarankhola,22.3082,89.7897,27.06,88,70,3.69,BD,1689426413
103,enewetak,11.3474,162.3373,28.23,77,91,7.15,MH,1689426414
104,midland,31.9974,-102.0779,28.37,55,0,5.14,US,1689426414
105,vadso,70.0744,29.7487,18.49,72,75,1.54,NO,1689426414
106,kande,9.9578,1.0447,33.39,49,82,1.5,TG,1689426414
107,lebu,-37.6167,-73.65,7.29,79,64,2.57,CL,1689426415
108,olonkinbyen,70.9221,-8.7187,4.63,97,100,7.14,SJ,1689426415
109,tura,25.5198,90.2201,24.82,94,98,2.44,IN,1689426411
110,conduaga,8.862,117.4893,26.46,89,100,4.6,PH,1689426415
111,sucre,-19.0333,-65.2627,13.3,13,100,1.17,BO,1689426416
112,yeppoon,-23.1333,150.7333,16.88,77,41,5.18,AU,1689426223
113,invercargill,-46.4,168.35,9.92,73,100,4.68,NZ,1689426141
114,nova vicosa,-17.8919,-39.3719,22.44,72,100,6.59,BR,1689426331
115,karakecili,39.5942,33.3778,32.06,20,0,6.03,TR,1689426416
116,college,64.8569,-147.8028,13.66,91,100,1.54,US,1689426416
117,simpang,-1.2667,104.0833,24.14,94,100,0.88,ID,1689426070
118,usogorsk,63.4106,48.6872,25.04,35,84,1.66,RU,1689426417
119,lerwick,60.1545,-1.1494,15.0,98,100,9.89,GB,1689426121
120,lubuklinggau,-3.3,102.8667,23.1,98,93,1.19,ID,1689426417
121,hastings,50.8552,0.5729,21.0,25,7,12.6,GB,1689426417
122,palikir - national government center,6.9248,158.1611,28.41,74,75,4.63,FM,1689426418
123,hede,33.7681,120.2517,24.98,84,100,2.3,CN,1689426322
124,tarawa,1.419,172.984,28.05,83,75,1.03,KI,1689426418
125,tazovsky,67.4667,78.7,12.0,62,100,5.68,RU,1689426418
126,selfoss,63.9331,-20.9971,14.47,61,77,4.26,IS,1689426418
127,alo,7.4178,6.7371,31.76,64,87,0.77,NG,1689426419
128,santa rosalia,27.3167,-112.2833,28.86,50,61,0.36,MX,1689426419
129,belmonte,-15.8631,-38.8828,24.19,83,22,4.27,BR,1689426150
130,enterprise,36.0252,-115.2419,31.51,17,0,3.6,US,1689426419
131,fort st. john,56.2499,-120.8529,12.72,90,100,0.94,CA,1689426419
132,uturoa,-16.7333,-151.4333,25.98,70,5,5.61,PF,1689426420
133,diego de almagro,-26.3667,-70.05,17.67,16,0,0.57,CL,1689426420
134,ikang,4.7898,8.5316,29.74,73,42,2.83,NG,1689426420
135,kodinar,20.7903,70.7031,28.41,79,100,6.67,IN,1689426420
136,nelson bay,-32.7167,152.15,15.0,67,5,2.68,AU,1689426421
137,upata,8.0086,-62.3989,26.22,71,41,3.15,VE,1689426348
138,zheleznodorozhnyy,55.7503,38.0042,18.75,68,100,5.25,RU,1689426421
139,talnakh,69.4865,88.3972,10.67,76,100,4.72,RU,1689426147
140,gokwe,-18.2048,28.9349,21.05,27,0,2.29,ZW,1689426421
141,bilibino,68.0546,166.4372,17.44,65,1,0.92,RU,1689426422
142,thinadhoo,0.5333,72.9333,28.22,72,6,0.44,MV,1689426422
143,ulanhot,46.0833,122.0833,17.47,90,100,7.58,CN,1689426422
144,howrah,22.5892,88.3103,27.0,94,75,1.54,IN,1689426422
145,brak,27.5496,14.2714,38.27,9,0,4.54,LY,1689426423
146,tazacorte,28.629,-17.9293,26.54,79,40,7.72,ES,1689426180
147,ilha de mocambique,-15.0342,40.7358,24.79,68,1,7.58,MZ,1689426425
148,avarua,-21.2078,-159.775,23.03,100,75,0.51,CK,1689426153
149,saurimo,-9.6608,20.3916,32.7,13,68,2.41,AO,1689426426
150,manzhouli,49.6,117.4333,20.08,47,0,0.95,CN,1689426426
151,mariehamn,60.0973,19.9348,20.92,64,0,5.66,AX,1689426426
152,ormara,25.2088,64.6357,28.49,80,28,9.3,PK,1689426375
153,kenora,49.8167,-94.4337,12.1,87,100,2.24,CA,1689426427
154,bulayevo,54.9056,70.4439,18.91,62,100,3.9,KZ,1689426427
155,punta arenas,-53.15,-70.9167,1.06,75,75,8.23,CL,1689426427
156,san patricio,28.017,-97.5169,28.92,84,32,5.7,US,1689426428
157,atafu village,-8.5421,-172.5159,28.04,75,98,4.78,TK,1689426428
158,ifrane,33.3333,-5.25,28.95,23,14,4.5,MA,1689426428
159,portland,45.5234,-122.6762,18.92,76,10,1.79,US,1689426010
160,aginskoye,51.1,114.53,20.5,51,0,1.25,RU,1689426429
161,mount gambier,-37.8333,140.7667,6.57,82,13,1.89,AU,1689426166
162,saint-pierre,-21.3393,55.4781,24.76,88,100,10.8,RE,1689426429
163,vorgashor,67.5833,63.95,19.42,42,62,6.08,RU,1689426151
164,puerto baquerizo moreno,-0.9,-89.6,24.79,81,9,5.75,EC,1689426430
165,nuuk,64.1835,-51.7216,8.34,93,75,2.06,GL,1689426430
166,bengkulu,-3.8004,102.2655,25.39,80,98,1.0,ID,1689426430
167,kununurra,-15.7667,128.7333,19.99,77,3,2.06,AU,1689426431
168,nicoya,10.1483,-85.452,25.3,86,96,1.37,CR,1689426431
169,coquimbo,-29.9533,-71.3436,10.85,100,100,1.03,CL,1689426144
170,magdagachi,53.45,125.8,20.42,55,100,2.08,RU,1689426431
171,elk city,35.412,-99.4043,22.12,100,100,2.57,US,1689426431
172,parvatipuram,18.7833,83.4333,26.66,88,100,1.56,IN,1689426432
173,webster city,42.4694,-93.816,19.28,100,0,2.06,US,1689426410
174,sinabang,2.4803,96.3801,27.01,75,85,1.23,ID,1689426432
175,necochea,-38.5473,-58.7368,6.49,79,0,6.39,AR,1689426137
176,ampanihy,-24.7,44.75,25.47,32,0,4.38,MG,1689426432
177,hillsdale,41.0026,-74.0404,27.45,84,100,0.0,US,1689426433
178,shunyi,40.125,116.6453,29.97,37,0,5.0,CN,1689426433
179,nadym,65.5333,72.5167,21.05,41,13,5.75,RU,1689426433
180,carutapera,-1.195,-46.02,28.59,68,62,4.6,BR,1689426433
181,krasnyy chikoy,50.3643,108.7512,20.28,66,45,0.63,RU,1689426434
182,okha,53.5739,142.9478,11.7,81,4,3.1,RU,1689426434
183,saint-joseph,-21.3667,55.6167,24.15,86,96,8.19,RE,1689426434
184,pathein,16.7833,94.7333,26.35,88,100,2.23,MM,1689426434
185,port lincoln,-34.7333,135.8667,10.44,68,12,3.41,AU,1689426435
186,namdrik,5.5994,168.1028,28.42,77,95,5.94,MH,1689426435
187,hermanus,-34.4187,19.2345,18.22,63,100,9.08,ZA,1689426435
188,tromso,69.6496,18.957,15.21,72,75,2.06,NO,1689426435
189,kapuskasing,49.4169,-82.4331,17.12,93,100,2.5,CA,1689426435
190,masaka,-0.3338,31.7341,26.31,41,11,6.13,UG,1689426436
191,sola,-13.8833,167.55,25.17,78,100,12.75,VU,1689426436
192,afaahiti,-17.75,-149.2833,19.93,72,29,5.23,PF,1689426436
193,ishigaki,24.3448,124.1572,29.24,80,71,9.14,JP,1689426436
194,kirkuk,35.4681,44.3922,43.93,6,0,4.85,IQ,1689426437
195,crane,31.3974,-102.3501,26.23,58,26,7.34,US,1689426437
196,mata-utu,-13.2816,-176.1745,27.46,80,24,8.72,WF,1689426437
197,marsa alam,25.0757,34.8918,34.68,43,100,3.43,EG,1689426437
198,port elizabeth,-33.918,25.5701,21.72,57,0,5.47,ZA,1689426438
199,melegnano,45.3588,9.324,32.32,54,20,2.06,IT,1689426438
200,skhirate,33.8498,-7.0404,29.06,80,40,3.58,MA,1689426308
201,yaren,-0.5472,166.916,28.52,76,100,3.7,NR,1689426193
202,lewistown,40.5992,-77.5714,23.97,100,100,0.0,US,1689426439
203,buala,-8.145,159.5921,25.25,88,100,0.98,SB,1689426439
204,mankachar,25.5333,89.8667,28.42,83,83,4.8,IN,1689426439
205,flin flon,54.7682,-101.865,10.29,91,100,5.91,CA,1689426439
206,papatowai,-46.5619,169.4708,9.16,79,100,3.6,NZ,1689426143
207,mitsamiouli,-11.3847,43.2844,25.6,72,45,4.48,KM,1689426440
208,egilsstadir,65.2653,-14.3948,9.95,66,75,1.03,IS,1689426319
209,lishui,28.4604,119.9103,28.41,81,23,1.7,CN,1689426441
210,east london,-33.0153,27.9116,24.89,32,2,4.63,ZA,1689426441
211,nyurba,63.2842,118.3319,6.34,93,84,2.44,RU,1689426441
212,raja,8.4596,25.678,29.86,51,100,1.83,SS,1689426441
213,rongelap,11.1635,166.8941,28.3,80,100,7.3,MH,1689426204
214,gamawa,12.1343,10.5396,36.96,29,75,3.61,NG,1689426442
215,longboat key,27.4125,-82.659,31.72,57,0,1.54,US,1689426347
216,tolanaro,-25.0319,46.9987,21.82,57,56,6.23,MG,1689426442
217,tenno,39.9,139.9667,23.56,95,100,6.44,JP,1689426443
218,nemuro,43.3236,145.575,14.42,98,100,4.47,JP,1689426443
219,newman,37.3138,-121.0208,21.27,53,0,0.45,US,1689426443
220,mo i rana,66.3128,14.1428,17.26,68,40,1.03,NO,1689426382
221,gobabis,-22.45,18.9667,22.81,18,0,5.16,NA,1689426443
222,tarauaca,-8.1614,-70.7656,23.28,67,26,1.72,BR,1689426444
223,menongue,-14.6585,17.691,29.37,15,5,2.2,AO,1689426444
224,mao,39.8885,4.2658,30.31,62,0,5.14,ES,1689426444
225,tamanrasset,22.785,5.5228,34.95,8,20,2.57,DZ,1689426223
226,ripon,54.1352,-1.5212,20.02,72,75,8.75,GB,1689426445
227,port alfred,-33.5906,26.891,25.66,37,33,1.79,ZA,1689426445
228,saudarkrokur,65.7461,-19.6394,5.42,94,100,4.91,IS,1689426445
229,sanliurfa,37.2128,38.7817,37.93,8,0,5.25,TR,1689426446
230,swan hill,-35.3378,143.5544,7.52,92,11,3.84,AU,1689426446
231,guarapari,-20.6667,-40.4975,21.05,62,37,3.86,BR,1689426166
232,tuy hoa,13.0833,109.3,29.19,69,100,5.76,VN,1689426447
233,luorong,24.4058,109.6086,28.36,82,35,2.34,CN,1689426447
234,bambanglipuro,-7.95,110.2833,24.45,85,77,3.43,ID,1689426448
235,petropavlovsk-kamchatsky,53.0452,158.6483,13.33,100,75,2.0,RU,1689426148
236,harper,4.375,-7.7169,26.96,75,25,3.58,LR,1689426448
237,mbandaka,0.0487,18.2603,29.9,53,55,1.38,CD,1689426449
238,buka,40.8108,69.1986,37.51,11,0,8.41,UZ,1689426449
239,korla,41.7597,86.1469,37.99,12,2,0.63,CN,1689426449
240,i-n-salah,27.1935,2.4607,43.83,4,0,0.4,DZ,1689426450
241,berrahal,36.8353,7.4533,33.85,20,0,4.46,DZ,1689426450
242,kristiansund,63.1115,7.732,22.03,49,75,5.14,NO,1689426450
243,cavan,53.9908,-7.3606,13.67,97,100,5.65,IE,1689426450
244,weno,7.4515,151.8468,27.97,83,100,1.54,FM,1689426451
245,ust-nera,64.5667,143.2,18.5,69,97,2.5,RU,1689426451
246,dudinka,69.4058,86.1778,10.89,63,100,4.83,RU,1689426451
247,ancud,-41.8697,-73.8203,5.64,89,52,1.3,CL,1689426451
248,hasaki,35.7333,140.8333,27.9,87,100,7.47,JP,1689426452
249,kattivakkam,13.2167,80.3167,35.05,69,100,5.06,IN,1689426224
250,karachi,24.9056,67.0822,31.9,58,75,9.77,PK,1689425947
251,waddan,29.1614,16.139,38.33,13,0,5.85,LY,1689426452
252,mulanje,-16.0316,35.5,20.63,57,81,3.54,MW,1689426453
253,ulsteinvik,62.3432,5.8487,23.28,66,97,4.2,NO,1689426214
254,la sarre,48.8002,-79.1996,18.91,76,96,3.38,CA,1689426453
255,queenstown,-31.8976,26.8753,16.92,30,71,8.44,ZA,1689426162
256,st. john's,47.5649,-52.7093,24.53,68,28,4.45,CA,1689426443
257,karratha,-20.7377,116.8463,21.38,36,0,5.97,AU,1689426454
258,yulinshi,38.2906,109.7494,25.32,24,0,3.55,CN,1689426454
259,salalah,17.0151,54.0924,28.05,83,100,5.14,OM,1689426454
260,san antonio de pale,-1.4014,5.6325,23.25,84,6,4.53,GQ,1689426454
261,rio de janeiro,-22.9028,-43.2075,21.97,71,40,3.09,BR,1689426362
262,al lagowa,11.4,29.1333,32.6,44,100,4.86,SD,1689426455
263,benemerito de las americas,16.5167,-90.6439,22.83,98,78,0.66,MX,1689426455
264,prachuap khiri khan,12.2167,99.75,25.63,77,100,4.09,TH,1689426196
265,chonchi,-42.6128,-73.8092,3.95,93,89,0.86,CL,1689426164
266,yreka,41.7354,-122.6345,18.1,52,0,2.06,US,1689426455
267,caraballeda,10.6112,-66.8522,29.92,90,79,3.21,VE,1689426456
268,sisimiut,66.9395,-53.6735,5.05,97,100,3.73,GL,1689426456
269,mhamid,29.82,-5.72,43.63,5,84,8.36,MA,1689426456
270,katsuura,35.1333,140.3,25.2,92,100,10.05,JP,1689426456
271,arno,60.1167,18.6333,20.44,45,95,2.38,SE,1689426457
272,sabang,5.8933,95.3214,28.54,76,45,11.15,ID,1689426457
273,pindushi,62.9152,34.58,21.39,52,48,2.79,RU,1689426457
274,touros,-5.1989,-35.4608,28.85,67,11,6.55,BR,1689426457
275,zhuji,29.7188,120.2423,26.76,93,100,3.44,CN,1689426457
276,valenca do piaui,-6.4075,-41.7456,31.07,40,0,3.24,BR,1689426232
277,guerrero negro,27.9769,-114.0611,18.58,90,100,3.96,MX,1689426458
278,kargil,34.5667,76.1,22.89,24,91,3.1,IN,1689426458
279,padang,-0.9492,100.3543,26.03,83,100,1.16,ID,1689426458
280,new norfolk,-42.7826,147.0587,10.51,89,100,5.33,AU,1689426458
281,novyy urengoy,66.0833,76.6333,19.26,41,100,6.46,RU,1689426459
282,champerico,14.3,-91.9167,26.1,83,41,2.01,GT,1689426459
283,san pedro pochutla,15.7333,-96.4667,24.84,74,15,1.95,MX,1689426459
284,prakhon chai,14.6059,103.1208,29.39,62,85,3.17,TH,1689426459
285,murashi,59.3999,48.9615,13.98,77,100,1.74,RU,1689426460
286,changping,40.2186,116.2197,29.8,39,100,2.34,CN,1689426460
287,baro,8.6,6.4167,33.37,55,56,1.09,NG,1689426460
288,ruwandiz,36.6163,44.5311,40.46,11,0,3.24,IQ,1689426460
289,pangai,-19.8,-174.35,22.24,79,100,12.47,TO,1689426460
290,thompson,55.7435,-97.8558,7.09,100,100,4.63,CA,1689426105
291,polyarnyy,69.1989,33.4478,16.84,82,100,3.29,RU,1689426461
292,zaozersk,69.4005,32.4476,16.72,86,100,3.34,RU,1689426461
293,jackson,42.4165,-122.8345,19.93,62,0,1.54,US,1689426410
294,arkhangel'sk,64.5401,40.5433,24.52,41,89,3.09,RU,1689426461
295,jibou,47.2667,23.25,29.62,39,1,0.59,RO,1689426462
296,kurumkan,54.3,110.3,18.56,73,10,2.0,RU,1689426462
297,udachny,66.4167,112.4,9.9,48,99,4.67,RU,1689426462
298,lompoc,34.6391,-120.4579,13.08,97,75,0.0,US,1689426462
299,algeciras,36.1333,-5.4505,28.82,54,20,5.14,ES,1689426463
300,hirara,24.8,125.2833,29.3,82,0,9.12,JP,1689426463
301,broken hill,-31.95,141.4333,9.9,84,0,7.05,AU,1689426463
302,hithadhoo,-0.6,73.0833,28.58,71,4,0.96,MV,1689426463
303,aasiaat,68.7098,-52.8699,3.42,96,99,2.73,GL,1689426463
304,brisas de zicatela,15.8369,-97.0419,25.29,78,40,3.09,MX,1689426464
305,alice town,25.7167,-79.3,29.25,73,70,3.3,BS,1689426464
306,luanda,-8.8368,13.2343,23.0,73,75,4.12,AO,1689426464
307,robertsport,6.7533,-11.3686,26.92,75,5,3.08,LR,1689426464
308,ambon,-3.6954,128.1814,27.15,95,40,2.57,ID,1689426465
309,kavalerovo,44.2661,135.0572,15.45,98,100,1.0,RU,1689426465
310,sotkamo,64.1333,28.4167,22.01,41,36,2.05,FI,1689426465
311,akjoujt,19.6969,-14.4164,37.27,28,5,4.06,MR,1689426465
312,renfrew,55.872,-4.3925,21.38,77,75,6.17,GB,1689426466
313,klaksvik,62.2266,-6.589,15.51,93,100,10.51,FO,1689426466
314,zliten,32.4674,14.5687,32.67,37,0,6.44,LY,1689426466
315,zychlin,52.244,19.6261,32.42,27,19,4.36,PL,1689426466
316,saldanha,-33.0117,17.9442,15.29,73,100,5.68,ZA,1689426466
317,parry sound,45.3501,-80.033,18.98,94,100,2.75,CA,1689426449
318,tuapse,44.1125,39.0742,23.65,70,16,2.8,RU,1689426467
319,coahuayana de hidalgo,18.7,-103.6583,25.49,89,44,1.48,MX,1689426467
320,rodolfo sanchez taboada,31.7167,-116.5667,18.39,81,95,0.89,MX,1689426467
321,bodaybo,57.8506,114.1933,14.57,71,73,1.7,RU,1689426467
322,nuevo casas grandes,30.4167,-107.9167,22.77,56,26,2.01,MX,1689426468
323,saipan,15.1355,145.701,28.39,100,40,5.66,MP,1689426340
324,soke,13.598,-5.9386,28.14,57,100,1.75,ML,1689426468
325,schuyler,42.4167,-76.883,25.13,88,97,1.34,US,1689426468
326,valence,39.4697,-0.3774,33.41,64,0,5.14,ES,1689426468
327,beyneu,45.3167,55.2,34.78,15,0,4.16,KZ,1689426469
328,abbeville,50.1,1.8333,19.71,56,100,7.96,FR,1689426469
329,miri,4.4148,114.0089,25.83,89,100,3.6,MY,1689426469
330,badger,64.8,-147.5333,13.62,92,75,1.54,US,1689426469
331,salekhard,66.53,66.6019,23.04,39,22,5.28,RU,1689426470
332,howard springs,-12.497,131.047,22.95,68,1,1.16,AU,1689426470
333,commack,40.8429,-73.2929,27.68,88,100,2.06,US,1689426470
334,calca,-13.3333,-71.95,9.64,66,0,1.65,PE,1689426470
335,calvinia,-31.4707,19.776,15.71,28,14,6.13,ZA,1689426470
336,barra da estiva,-13.6261,-41.3269,22.13,54,24,3.86,BR,1689426471
337,nizhneangarsk,55.7833,109.55,12.01,91,35,1.26,RU,1689426471
338,emerald,-23.5333,148.1667,18.54,64,100,2.81,AU,1689426471
339,vilyuchinsk,52.9306,158.4028,10.58,95,11,0.58,RU,1689426472
340,colby,39.3958,-101.0524,19.75,87,100,3.6,US,1689426472
341,pijijiapan,15.7011,-93.23,26.25,75,11,2.25,MX,1689426472
342,manassas,38.751,-77.4753,26.65,86,75,2.06,US,1689425835
343,khorixas,-20.3667,14.9667,25.58,9,0,2.35,NA,1689426473
344,fale old settlement,-9.3852,-171.2468,28.28,72,13,6.44,TK,1689426473
345,hilo,19.7297,-155.09,21.25,91,20,1.54,US,1689426474
346,nar'yan-mar,67.6713,53.087,23.87,39,16,1.9,RU,1689426474
347,tra vinh,9.9347,106.3453,27.0,76,100,4.2,VN,1689426441
348,inarajan village,13.2736,144.7484,28.54,89,100,7.05,GU,1689426474
349,kenai,60.5544,-151.2583,13.05,97,100,4.12,US,1689426475
350,kapa'a,22.0752,-159.319,24.18,81,40,3.09,US,1689426475
351,piti village,13.4626,144.6933,28.49,85,0,4.12,GU,1689426475
352,lhokseumawe,5.1801,97.1507,27.63,73,95,0.66,ID,1689426475
353,naze,28.3667,129.4833,26.82,84,39,7.06,JP,1689426476
354,kone,-21.0595,164.8658,19.17,62,25,3.39,NC,1689426476
355,alice springs,-23.7,133.8833,12.75,67,0,2.06,AU,1689426476
356,shingu,33.7333,135.9833,24.5,95,99,2.69,JP,1689426476
357,morehead city,34.7229,-76.726,30.57,85,0,4.12,US,1689426348
358,broome,42.2506,-75.833,24.08,84,0,3.09,US,1689426477
359,homestead meadows north,31.8496,-106.1729,30.71,36,75,6.17,US,1689426227
360,lagoa,39.05,-27.9833,19.9,78,84,2.94,PT,1689426477
361,joao camara,-5.5375,-35.8197,30.79,46,3,5.66,BR,1689426477
362,arraial do cabo,-22.9661,-42.0278,20.92,68,20,2.06,BR,1689426478
363,sao vicente,-23.9631,-46.3919,19.1,61,0,1.14,BR,1689426478
364,luderitz,-26.6481,15.1594,19.18,47,60,5.08,NA,1689426478
365,shakawe,-18.3667,21.85,27.47,16,0,2.25,BW,1689426478
366,klyuchi,52.2667,79.1667,27.11,25,75,7.7,RU,1689426230
367,nema,57.5067,50.5011,14.14,81,100,3.8,RU,1689426479
368,liman,48.9884,37.8023,25.12,39,4,7.49,UA,1689426479
369,amahai,-3.3333,128.9167,28.33,88,100,2.06,ID,1689426479
370,ola,59.5833,151.2833,11.19,84,0,2.06,RU,1689426480
371,port augusta,-32.5,137.7667,10.13,86,0,5.65,AU,1689426480
372,phan rang-thap cham,11.5667,108.9833,29.16,66,100,3.85,VN,1689426480
373,totness,5.8833,-56.3167,27.88,77,15,3.89,SR,1689426480
374,happy valley-goose bay,53.3168,-60.3315,24.74,59,92,3.31,CA,1689426480
375,laguna,38.421,-121.4238,22.47,68,0,1.54,US,1689426481
376,acapulco de juarez,16.8634,-99.8901,26.9,74,75,3.6,MX,1689426481
377,kalabo,-14.97,22.6814,28.88,16,0,2.86,ZM,1689426481
378,torghay,49.6339,63.4981,28.71,23,7,7.86,KZ,1689426482
379,viana do castelo,41.6932,-8.8329,20.44,63,78,4.91,PT,1689426482
380,angra dos reis,-23.0067,-44.3181,20.44,54,0,1.59,BR,1689426318
381,mammoth lakes,37.6485,-118.9721,7.4,53,0,1.54,US,1689426483
382,fort mcmurray,56.7268,-111.381,14.07,72,89,1.55,CA,1689426483
383,anloga,5.7947,0.8973,27.66,75,30,5.95,GH,1689426484
384,synel'nykove,48.3204,35.5179,24.73,39,90,5.32,UA,1689426484
385,nabire,-3.3667,135.4833,24.44,91,100,0.92,ID,1689426485
386,cidreira,-30.1811,-50.2056,11.62,70,11,1.76,BR,1689426485
387,utrik,11.2278,169.8474,28.26,79,71,7.36,MH,1689426486
388,lazaro cardenas,17.9583,-102.2,26.13,85,61,2.0,MX,1689426400
389,cabo san lucas,22.8909,-109.9124,30.28,66,28,4.37,MX,1689426028
390,chegdomyn,51.1167,133.0167,17.59,51,100,0.45,RU,1689426487
391,hanceville,34.0607,-86.7675,24.25,92,82,3.19,US,1689426487
392,verkhnevilyuysk,63.4453,120.3167,5.39,96,100,4.62,RU,1689426488
393,talcahuano,-36.7167,-73.1167,1.82,100,0,3.09,CL,1689426488
394,shizuishan,39.2333,106.7694,27.16,14,0,5.17,CN,1689426489
395,gisborne,-38.6533,178.0042,8.74,85,15,3.35,NZ,1689426489
396,pemangkat,1.1667,108.9667,26.76,78,100,4.7,ID,1689426490
397,leer,53.2316,7.461,26.08,64,100,5.83,DE,1689426490
398,keminmaa,65.8596,24.8228,17.87,82,75,5.14,FI,1689426491
399,haiku-pauwela,20.9219,-156.3051,23.91,81,0,4.63,US,1689426491
400,palapag,12.5458,125.1147,25.93,89,100,2.58,PH,1689426491
401,minab,27.1467,57.0801,37.0,48,4,4.64,IR,1689426492
402,keelung,25.1283,121.7419,31.43,86,45,8.33,TW,1689426492
403,kupang,-10.1667,123.5833,24.48,76,2,5.38,ID,1689426492
404,wad rawah,15.1603,33.1397,39.63,24,45,8.83,SD,1689426493
405,taltal,-25.4,-70.4833,18.14,58,1,1.7,CL,1689426493
406,gamay,12.3854,125.2979,25.94,90,100,2.38,PH,1689426493
407,darwin,-12.4611,130.8418,22.99,88,0,0.0,AU,1689426493
408,naivasha,-0.7167,36.4359,21.43,47,82,4.41,KE,1689426445
409,nguigmi,14.2495,13.1092,34.25,40,27,4.68,NE,1689426494
410,isiro,2.7739,27.616,26.83,64,100,0.27,CD,1689426494
411,dakhla,23.6848,-15.958,22.83,75,6,10.91,EH,1689426495
412,sainte-anne-des-monts,49.124,-66.4924,20.41,81,100,2.46,CA,1689426495
413,annau,37.8876,58.516,40.15,14,19,7.4,TM,1689426496
414,kodiak,57.79,-152.4072,12.73,94,100,0.0,US,1689426496
415,urangan,-25.3,152.9,19.72,67,99,3.57,AU,1689426496
416,medicine hat,50.0501,-110.6683,14.55,94,100,1.54,CA,1689426245
417,ustyuzhna,58.8394,36.4321,15.9,93,100,2.41,RU,1689426497
418,dompu,-8.5356,118.4622,20.89,93,6,1.12,ID,1689426497
419,tshabong,-26.05,22.45,22.53,25,6,3.66,BW,1689426497
420,island harbour,50.724,-1.2758,20.11,76,5,5.81,GB,1689426498
421,alaior,39.9303,4.1404,29.86,62,0,5.14,ES,1689426498
422,san luis del palmar,-27.5079,-58.5545,11.63,73,0,2.02,AR,1689426498
423,jalalabad,34.4265,70.4515,38.45,32,0,4.95,AF,1689426499
424,morant bay,17.8815,-76.4093,30.95,78,24,5.28,JM,1689426499
425,manokwari,-0.8667,134.0833,25.44,85,100,3.96,ID,1689426499
426,vicuna,-30.0319,-70.7081,5.85,13,2,2.8,CL,1689426500
427,nueva gerona,21.8833,-82.8,30.06,66,81,4.98,CU,1689426500
428,katpur,21.05,71.7833,29.37,76,97,8.27,IN,1689426500
429,yakeshi,49.2833,120.7333,18.25,76,100,0.56,CN,1689426500
430,the pas,53.8251,-101.2541,10.99,86,100,5.9,CA,1689426500
431,gebeit,21.0667,36.3167,42.15,8,99,2.27,SD,1689426501
432,port isabel,26.0734,-97.2086,28.36,88,20,4.63,US,1689426501
433,quellon,-43.1167,-73.6167,3.14,100,0,0.0,CL,1689426501
434,ponta delgada,37.7333,-25.6667,22.4,68,20,4.63,PT,1689426501
435,miranda,3.2499,-76.2281,21.09,80,86,0.5,CO,1689426502
436,huarmey,-10.0681,-78.1522,21.0,81,90,2.73,PE,1689426502
437,pandan,14.0453,124.1694,27.4,81,100,4.34,PH,1689426502
438,ankazoabo,-22.2833,44.5167,27.4,22,0,2.99,MG,1689426502
439,kuloy,61.0305,42.4925,23.08,37,100,0.6,RU,1689426503
440,castillos,-34.1667,-53.8333,8.01,70,51,3.28,UY,1689426503
441,linkoping,58.4109,15.6216,24.43,52,100,5.14,SE,1689426503
442,oebisfelde,52.4333,10.9833,24.12,62,100,11.89,DE,1689426504
443,sur,22.5667,59.5289,34.48,52,35,1.5,OM,1689426504
444,al jawf,29.5,38.75,42.4,6,0,0.97,SA,1689426504
445,ust'-ilimsk,58.0006,102.6619,17.68,42,100,2.3,RU,1689426504
446,tete,-16.1564,33.5867,26.05,41,40,2.68,MZ,1689426056
447,bayanaul,50.7889,75.6956,24.95,26,9,10.29,KZ,1689426505
448,humberto de campos,-2.5983,-43.4611,27.51,73,100,4.09,BR,1689426324
449,abepura,-2.6333,140.5833,25.45,83,20,1.54,ID,1689426505
450,livingston,55.9029,-3.5226,20.45,60,40,7.2,GB,1689426505
451,lorengau,-2.0226,147.2712,28.13,79,100,6.02,PG,1689426227
452,luimneach,52.6647,-8.6231,16.16,95,100,9.27,IE,1689426506
453,kirakira,-10.4544,161.9205,24.87,97,100,4.26,SB,1689426506
454,akureyri,65.6835,-18.0878,5.96,87,100,3.6,IS,1689426219
455,ambovombe,-25.1667,46.0833,22.44,53,0,7.02,MG,1689426506
456,tupanatinga,-8.7533,-37.3397,25.67,46,0,2.63,BR,1689426507
457,kalundborg,55.6795,11.0886,28.51,75,94,5.68,DK,1689426507
458,krasnoarmeyskoye,52.7182,50.0322,22.11,54,100,4.05,RU,1689426507
459,petauke,-14.2426,31.3253,24.51,29,0,1.7,ZM,1689426507
460,rye,40.9807,-73.6837,27.92,81,20,0.89,US,1689426508
461,port moresby,-9.4431,147.1797,22.92,80,28,6.54,PG,1689426508
462,aswan,24.0934,32.907,42.61,9,0,4.63,EG,1689426379
463,slatyne,50.2242,36.1608,23.14,49,75,6.93,UA,1689426508
464,inirida,3.8653,-67.9239,24.6,94,87,1.3,CO,1689426509
465,zavety il'icha,49.0294,140.2494,14.32,65,100,1.35,RU,1689426509
466,myrhorod,49.9685,33.6089,25.41,41,78,5.76,UA,1689426509
467,vilyuysk,63.7553,121.6247,5.23,94,100,5.27,RU,1689426509
468,sinop,41.7711,34.8709,23.24,62,1,4.97,TR,1689426510
469,aykhal,66.0,111.5,8.83,51,100,2.78,RU,1689426510
470,plettenberg bay,-34.0527,23.3716,16.74,68,87,3.32,ZA,1689426510
471,susuman,62.7833,148.1667,17.57,77,4,3.0,RU,1689426510
472,datong,40.0936,113.2914,21.25,45,100,3.01,CN,1689426510
473,ad dawadimi,24.5077,44.3924,41.18,5,40,6.83,SA,1689426511
474,whangarei,-35.7317,174.3239,9.58,97,25,1.97,NZ,1689426511
475,palm valley,30.1775,-81.3876,28.46,88,64,3.74,US,1689426511
476,dabakala,8.3667,-4.4333,28.32,71,100,2.32,CI,1689426511
477,robore,-18.3333,-59.75,19.93,42,98,1.62,BO,1689426512
478,moss point,30.4116,-88.5345,29.48,86,0,1.54,US,1689426512
479,ribeira brava,32.65,-17.0667,26.18,76,7,0.69,PT,1689426512
480,pitman,39.7329,-75.1316,28.95,79,40,3.09,US,1689426512
481,puerto aysen,-45.4,-72.7,4.09,97,100,1.65,CL,1689426512
482,north bend,43.4065,-124.2243,13.81,94,100,2.57,US,1689426315
483,remire-montjoly,4.9167,-52.2667,30.02,70,75,3.09,GF,1689426513
484,rundu,-17.9333,19.7667,27.48,16,0,2.34,NA,1689426513
485,al kharijah,25.4514,30.5464,41.02,10,37,6.01,EG,1689426513
486,kerema,-7.9631,145.7785,25.21,82,99,4.86,PG,1689426513
487,carthage,36.8611,10.3316,40.74,21,0,3.6,TN,1689426165
488,reggane,26.7158,0.1714,44.42,5,0,1.54,DZ,1689426514
489,umba,66.6871,34.3429,16.49,75,64,2.79,RU,1689426514
490,motueka,-41.1333,173.0167,8.39,80,98,1.8,NZ,1689426514
491,chibougamau,49.9168,-74.3659,16.81,74,100,2.84,CA,1689426515
492,brokopondo,4.75,-55.1667,27.02,79,11,3.74,SR,1689426515
493,ujae,8.9322,165.7642,28.59,71,100,6.02,MH,1689426515
494,almeirim,-1.5233,-52.5817,28.29,69,23,2.6,BR,1689426515
495,gunjur,13.2019,-16.7339,32.04,62,75,5.14,GM,1689426515
496,kasempa,-13.4584,25.8338,26.76,20,3,2.18,ZM,1689426516
497,wadgaon,18.7333,73.65,23.69,84,100,5.37,IN,1689425998
498,bambari,5.768,20.6757,28.13,72,56,1.55,CF,1689426516
499,moussoro,13.6408,16.4901,35.99,31,12,5.12,TD,1689426516
500,ipora,-16.4419,-51.1178,22.18,34,6,2.83,BR,1689426516
501,taro,-8.3862,115.28,22.0,95,91,1.29,ID,1689426517
502,manta,-0.95,-80.7333,26.67,78,100,8.05,EC,1689426486
503,puerto santa,-8.9906,-78.6456,21.25,83,90,3.75,PE,1689426517
504,vila franca do campo,37.7167,-25.4333,22.23,61,51,2.38,PT,1689426517
505,mgandu,-5.95,34.1333,26.58,25,0,3.14,TZ,1689426518
506,morondava,-20.2833,44.2833,25.73,57,1,5.13,MG,1689426519
507,aizkraukle,56.6048,25.2553,25.47,32,18,2.59,LV,1689426519
508,kilindoni,-7.9139,39.6668,24.92,74,1,7.19,TZ,1689426520
509,okondja,-0.6549,13.6753,35.71,32,99,0.45,GA,1689426520
510,karungdong,5.8844,121.263,27.43,86,100,4.52,PH,1689426520
511,volodarskiy,46.4013,48.5409,32.97,40,94,10.0,RU,1689426520
512,milagres,-7.3133,-38.9456,32.01,36,6,1.59,BR,1689426521
513,barah,13.7,30.3667,37.57,25,91,7.03,SD,1689426521
514,olyokminsk,60.3736,120.4264,12.27,50,97,1.27,RU,1689426521
515,ternate,0.8,127.4,24.24,94,100,1.9,ID,1689426522
516,sao joao da barra,-21.6403,-41.0511,22.05,54,14,2.83,BR,1689426522
517,turpan,42.9333,89.1667,44.95,7,1,1.27,CN,1689426522
518,basse-terre,16.1667,-61.6667,28.58,70,40,6.69,GP,1689426522
519,ta'if,21.2703,40.4158,33.36,18,68,3.61,SA,1689426523
520,nazir town,33.3061,73.4833,35.11,42,9,1.52,PK,1689426523
521,selkirk,50.1436,-96.8845,15.05,81,100,3.18,CA,1689426523
522,giado,31.9582,12.0203,37.58,8,0,5.46,LY,1689426523
523,savelugu,9.6244,-0.8253,32.95,50,87,1.94,GH,1689426524
524,semenov,56.7875,44.493,22.09,46,100,3.57,RU,1689426524
525,markovo,57.3206,107.0881,15.82,63,7,1.84,RU,1689426524
526,stephenville,32.2207,-98.2023,28.81,71,0,3.09,US,1689426524
527,maxixe,-23.8597,35.3472,22.89,50,9,3.61,MZ,1689426525
528,mejit,10.2753,170.8646,28.12,75,66,8.59,MH,1689426525
529,labrador city,52.9463,-66.9114,20.52,58,2,2.71,CA,1689426525
530,florida,28.7505,-82.5001,28.84,84,40,0.89,US,1689426525
531,illizi,26.4833,8.4667,40.33,6,0,4.0,DZ,1689426525
532,santa cruz de las flores,20.4833,-103.5,18.09,85,59,0.96,MX,1689426526
533,banswara,23.55,74.45,29.78,67,100,4.05,IN,1689426298
534,bonnyville,54.2668,-110.735,13.15,79,99,1.66,CA,1689426526
535,pontianak,-0.0333,109.3333,26.99,83,20,2.06,ID,1689426293
536,tionk essil,12.7856,-16.5217,26.25,83,100,2.93,SN,1689426526
537,tual,-5.6667,132.75,26.44,85,16,8.21,ID,1689426527
538,itamaraca,-7.7478,-34.8256,29.03,70,18,3.88,BR,1689426527
539,sydney mines,46.2367,-60.2177,25.06,82,100,3.13,CA,1689426527
540,gautampura,22.9833,75.5167,27.42,79,100,3.64,IN,1689426479
541,murray bridge,-35.1167,139.2667,6.82,77,1,2.11,AU,1689426527
542,puerto carreno,6.189,-67.4859,25.25,86,96,1.57,CO,1689426528
543,cafayate,-26.073,-65.9761,16.51,13,0,0.38,AR,1689426528
544,penal,10.1667,-61.4667,27.72,86,39,0.45,TT,1689426528
545,northam,51.0333,-4.2167,18.7,85,21,12.21,GB,1689426528
546,vypasne,45.8756,34.1773,29.56,36,2,5.3,UA,1689426529
547,kill devil hills,36.0307,-75.676,29.99,85,75,3.6,US,1689426529
548,ad dilam,23.9915,47.1627,45.91,5,13,5.58,SA,1689426529
549,boende,-0.2167,20.8667,35.74,33,28,0.72,CD,1689426529
550,turkmenbasy,40.0222,52.9552,28.29,48,0,5.59,TM,1689426530
551,saint augustine beach,29.8505,-81.2654,27.82,83,0,3.09,US,1689426530
552,melfort,52.8667,-104.6177,11.57,76,100,5.52,CA,1689426530
553,komatipoort,-25.4332,31.9548,23.92,31,0,2.49,ZA,1689426530
554,tadine,-21.55,167.8833,20.64,57,5,9.18,NC,1689426531
555,kannur,11.8675,75.3576,26.64,83,100,4.11,IN,1689426531
556,along,28.1667,94.7667,26.01,95,35,0.2,IN,1689426443
557,bonthe,7.5264,-12.505,28.09,70,60,3.97,SL,1689426531
558,taroa,8.7058,171.2275,28.24,74,72,7.77,MH,1689426531
559,kolonia town,6.964,158.206,29.0,74,75,4.63,FM,1689426532
560,fisterra,42.9049,-9.2629,22.64,65,0,5.1,ES,1689426532
561,demre,36.2537,29.9777,37.15,22,0,3.22,TR,1689426532
562,shambu,9.5667,37.1,16.26,82,58,1.62,ET,1689426532
563,goz beida,13.95,20.55,35.21,33,86,3.91,TD,1689426532
564,kalat,29.0225,66.5916,30.82,15,93,6.35,PK,1689426533
565,vernon,50.2581,-119.2691,19.05,66,45,0.45,CA,1689426533
566,dahanu,19.9667,72.7333,27.5,87,100,5.66,IN,1689426533
567,thunder bay,48.4001,-89.3168,13.99,100,100,3.6,CA,1689426340
